<?xml version="1.0" encoding="utf-8"?>
<ArrayOfVolunteer>
  <Volunteer>
    <Id>281868710</Id>
    <Name>Dani Levy</Name>
    <Phone>054-6672623</Phone>
    <Email>danilevy123@gmail.com</Email>
    <IsActive>true</IsActive>
    <Role>Admin</Role>
    <DistanceType>Plane</DistanceType>
    <Password>A3b9Kp5vL1</Password>
    <Address>גרנדר קניון, David Tuviyahu Ave 125, Be'er Sheva</Address>
    <Latitude>31.250640869140625</Latitude>
    <Longitude>34.771663665771484</Longitude>
    <MaxDistance>15</MaxDistance>
  </Volunteer>
  <Volunteer>
    <Id>264561419</Id>
    <Name>Eli Amar</Name>
    <Phone>050-9559619</Phone>
    <Email>eliamar456@gmail.com</Email>
    <IsActive>true</IsActive>
    <Role>GeneralVolunteer</Role>
    <DistanceType>Plane</DistanceType>
    <Password>Z8mQ7xW4rB</Password>
    <Address>דרך אליהו נאוי 28, Beersheba</Address>
    <Latitude>31.246780395507812</Latitude>
    <Longitude>34.81570053100586</Longitude>
    <MaxDistance>78</MaxDistance>
  </Volunteer>
  <Volunteer>
    <Id>399045160</Id>
    <Name>Yair Cohen</Name>
    <Phone>052-3066266</Phone>
    <Email>yaircohen789@outlook.com</Email>
    <IsActive>true</IsActive>
    <Role>GeneralVolunteer</Role>
    <DistanceType>Plane</DistanceType>
    <Password>L2dR9yC8zN</Password>
    <Address>מתחם תחנת הדלק אלון, 31, Arad</Address>
    <Latitude>31.249767303466797</Latitude>
    <Longitude>35.19145584106445</Longitude>
    <MaxDistance>36</MaxDistance>
  </Volunteer>
  <Volunteer>
    <Id>279513898</Id>
    <Name>Ariela Levin</Name>
    <Phone>050-8020550</Phone>
    <Email>arielalevin234@gmail.com</Email>
    <IsActive>true</IsActive>
    <Role>GeneralVolunteer</Role>
    <DistanceType>Plane</DistanceType>
    <Password>J1fV6kH3tP</Password>
    <Address>Mivtsa Nakhshon Street 60, Be'er Sheva</Address>
    <Latitude>31.260501861572266</Latitude>
    <Longitude>34.787322998046875</Longitude>
    <MaxDistance>61</MaxDistance>
  </Volunteer>
  <Volunteer>
    <Id>301441795</Id>
    <Name>Dina Klein</Name>
    <Phone>054-3781498</Phone>
    <Email>dinaklein567@gmail.com</Email>
    <IsActive>true</IsActive>
    <Role>GeneralVolunteer</Role>
    <DistanceType>Plane</DistanceType>
    <Password>B5gY4nM7jQ</Password>
    <Address>Yitzhack I. Rager Boulevard 24, Be'er Sheva</Address>
    <Latitude>31.247364044189453</Latitude>
    <Longitude>34.797813415527344</Longitude>
    <MaxDistance>21</MaxDistance>
  </Volunteer>
  <Volunteer>
    <Id>349983829</Id>
    <Name>Shira Israelof</Name>
    <Phone>054-7123344</Phone>
    <Email>shiraisraelof890@gmail.com</Email>
    <IsActive>true</IsActive>
    <Role>GeneralVolunteer</Role>
    <DistanceType>Plane</DistanceType>
    <Password>N6xP8cL2mV</Password>
    <Address>Tsvi Bornstein Street 312, Yeruham</Address>
    <Latitude>30.988506317138672</Latitude>
    <Longitude>34.92795181274414</Longitude>
    <MaxDistance>69</MaxDistance>
  </Volunteer>
  <Volunteer>
    <Id>330272974</Id>
    <Name>Yael Mizrahi</Name>
    <Phone>054-3387719</Phone>
    <Email>yaelmizrahi123@outlook.com</Email>
    <IsActive>true</IsActive>
    <Role>GeneralVolunteer</Role>
    <DistanceType>Plane</DistanceType>
    <Password>T3lH7wQ5rZ</Password>
    <Address>איזור תעשייה, הפועלים 5, דימונה</Address>
    <Latitude>31.062822341918945</Latitude>
    <Longitude>35.019203186035156</Longitude>
    <MaxDistance>100</MaxDistance>
  </Volunteer>
  <Volunteer>
    <Id>245026807</Id>
    <Name>Oren Shmuel</Name>
    <Phone>054-2670027</Phone>
    <Email>orenshmuel456@gmail.com</Email>
    <IsActive>true</IsActive>
    <Role>GeneralVolunteer</Role>
    <DistanceType>Plane</DistanceType>
    <Password>Y9kJ4bM8xL</Password>
    <Address>Herzl Street 43, Be'er Sheva</Address>
    <Latitude>31.23963737487793</Latitude>
    <Longitude>34.78774642944336</Longitude>
    <MaxDistance>28</MaxDistance>
  </Volunteer>
  <Volunteer>
    <Id>340926896</Id>
    <Name>Maya Katz</Name>
    <Phone>053-5821446</Phone>
    <Email>mayakatz789@gmail.com</Email>
    <IsActive>true</IsActive>
    <Role>GeneralVolunteer</Role>
    <DistanceType>Plane</DistanceType>
    <Password>R7dF2yW6nP</Password>
    <Address>Derekh Hebron 21, Beersheba</Address>
    <Latitude>31.23919677734375</Latitude>
    <Longitude>34.79679489135742</Longitude>
    <MaxDistance>12</MaxDistance>
  </Volunteer>
  <Volunteer>
    <Id>320796776</Id>
    <Name>Tomer Golan</Name>
    <Phone>058-6978471</Phone>
    <Email>tomergolan234@gmail.com</Email>
    <IsActive>true</IsActive>
    <Role>GeneralVolunteer</Role>
    <DistanceType>Plane</DistanceType>
    <Password>X3bZ9mQ5jT</Password>
    <Address>Derekh Hebron 4, Beersheba</Address>
    <Latitude>31.23776626586914</Latitude>
    <Longitude>34.79442596435547</Longitude>
    <MaxDistance>87</MaxDistance>
  </Volunteer>
  <Volunteer>
    <Id>228471531</Id>
    <Name>Lea Sharabi</Name>
    <Phone>053-4168239</Phone>
    <Email>leasharabi567@gmail.com</Email>
    <IsActive>true</IsActive>
    <Role>GeneralVolunteer</Role>
    <DistanceType>Plane</DistanceType>
    <Password>M1pV8yN6xL</Password>
    <Address>Kornmehl Farm M.E. Ramat Negev D.N. Halutza</Address>
    <Latitude>30.972753524780273</Latitude>
    <Longitude>34.775508880615234</Longitude>
    <MaxDistance>15</MaxDistance>
  </Volunteer>
  <Volunteer>
    <Id>326870803</Id>
    <Name>Moti Ben-David</Name>
    <Phone>053-1727052</Phone>
    <Email>motibendavid890@outlook.com</Email>
    <IsActive>true</IsActive>
    <Role>GeneralVolunteer</Role>
    <DistanceType>Plane</DistanceType>
    <Password>G7kJ2fT9mB</Password>
    <Address>רסקו סנטר, HaTikva 8, Beersheba</Address>
    <Latitude>31.247425079345703</Latitude>
    <Longitude>34.79861831665039</Longitude>
    <MaxDistance>15</MaxDistance>
  </Volunteer>
  <Volunteer>
    <Id>269016432</Id>
    <Name>Yaakov Peretz</Name>
    <Phone>054-2314596</Phone>
    <Email>yaakovperetz123@gmail.com</Email>
    <IsActive>true</IsActive>
    <Role>GeneralVolunteer</Role>
    <DistanceType>Plane</DistanceType>
    <Password>H5qZ4pL7nV</Password>
    <Address>40, Tlalim</Address>
    <Latitude>30.993568420410156</Latitude>
    <Longitude>34.76435852050781</Longitude>
    <MaxDistance>41</MaxDistance>
  </Volunteer>
  <Volunteer>
    <Id>280796437</Id>
    <Name>Ruth Azulay</Name>
    <Phone>052-3223345</Phone>
    <Email>ruthazulay456@gmail.com</Email>
    <IsActive>true</IsActive>
    <Role>GeneralVolunteer</Role>
    <DistanceType>Plane</DistanceType>
    <Password>D9yX6kB3rQ</Password>
    <Address>קניון פרץ סנטר, דימונה</Address>
    <Latitude>31.059932708740234</Latitude>
    <Longitude>35.02031326293945</Longitude>
    <MaxDistance>56</MaxDistance>
  </Volunteer>
  <Volunteer>
    <Id>312134601</Id>
    <Name>Itzik Shalev</Name>
    <Phone>058-6425270</Phone>
    <Email>itzikshalev789@outlook.com</Email>
    <IsActive>true</IsActive>
    <Role>GeneralVolunteer</Role>
    <DistanceType>Plane</DistanceType>
    <Password>C1mP7vJ8wZ</Password>
    <Address>פרץ סנטר - אזור תעשיה דרומי, Dimona</Address>
    <Latitude>31.059932708740234</Latitude>
    <Longitude>35.02031326293945</Longitude>
    <MaxDistance>60</MaxDistance>
  </Volunteer>
</ArrayOfVolunteer>